$GPGGA,054721.735,5122.5791,N,00728.3619,E,1,05,1.5,184.5,M,47.5,M,0.0,0000*77

$GPGGA,054722.735,5122.5792,N,00728.3620,E,1,04,9.5,184.8,M,47.5,M,0.0,0000*79

$GPGGA,054723.735,5122.5798,N,00728.3628,E,1,05,1.5,187.1,M,47.5,M,0.0,0000*79

$GPGGA,054724.735,5122.5800,N,00728.3632,E,1,05,1.5,188.0,M,47.5,M,0.0,0000*75

$GPGGA,054725.735,5122.5803,N,00728.3637,E,1,05,1.5,189.5,M,47.5,M,0.0,0000*76

$GPGGA,054726.735,5122.5806,N,00728.3643,E,1,05,1.5,191.0,M,47.5,M,0.0,0000*7F

$GPGGA,054727.735,5122.5809,N,00728.3649,E,1,05,1.5,192.4,M,47.5,M,0.0,0000*7C

$GPGGA,054728.735,5122.5811,N,00728.3655,E,1,05,1.5,193.9,M,47.5,M,0.0,0000*7B

$GPGGA,054729.735,5122.5815,N,00728.3661,E,1,05,1.5,195.7,M,47.5,M,0.0,0000*71

$GPGGA,054730.734,5122.5818,N,00728.3667,E,1,06,1.3,197.4,M,47.5,M,0.0,0000*77

$GPGGA,054731.734,5122.5821,N,00728.3672,E,1,06,1.3,198.9,M,47.5,M,0.0,0000*7A

$GPGGA,054732.734,5122.5824,N,00728.3677,E,1,06,1.3,200.1,M,47.5,M,0.0,0000*73

$GPGGA,054733.734,5122.5826,N,00728.3681,E,1,06,1.3,201.0,M,47.5,M,0.0,0000*79

$GPGGA,054734.734,5122.5827,N,00728.3683,E,1,05,1.7,201.6,M,47.5,M,0.0,0000*7C

$GPGGA,054735.734,5122.5827,N,00728.3683,E,1,05,1.7,202.3,M,47.5,M,0.0,0000*7B

$GPGGA,054736.734,5122.5827,N,00728.3681,E,1,05,1.7,202.9,M,47.5,M,0.0,0000*70

$GPGGA,054737.734,5122.5827,N,00728.3679,E,1,05,1.7,203.5,M,47.5,M,0.0,0000*7B

$GPGGA,054738.734,5122.5828,N,00728.3677,E,1,05,1.7,204.1,M,47.5,M,0.0,0000*76

$GPGGA,054739.734,5122.5828,N,00728.3675,E,1,05,1.7,204.4,M,47.5,M,0.0,0000*70

$GPGGA,054740.734,5122.5828,N,00728.3673,E,1,05,1.7,204.6,M,47.5,M,0.0,0000*7A

$GPGGA,054741.734,5122.5828,N,00728.3672,E,1,05,1.7,204.6,M,47.5,M,0.0,0000*7A

$GPGGA,054742.734,5122.5833,N,00728.3675,E,1,04,10.4,204.6,M,47.5,M,0.0,0000*46

$GPGGA,054743.734,5122.5848,N,00728.3681,E,1,05,1.5,203.6,M,47.5,M,0.0,0000*77

$GPGGA,054744.734,5122.5870,N,00728.3702,E,1,06,1.3,203.3,M,47.5,M,0.0,0000*71

$GPGGA,054745.734,5122.5895,N,00728.3730,E,1,06,1.3,203.0,M,47.5,M,0.0,0000*79

$GPGGA,054746.734,5122.5922,N,00728.3768,E,1,06,1.3,203.1,M,47.5,M,0.0,0000*7B

$GPGGA,054747.733,5122.5950,N,00728.3814,E,1,05,1.7,203.3,M,47.5,M,0.0,0000*79

$GPGGA,054748.733,5122.5983,N,00728.3866,E,1,04,2.0,203.4,M,47.5,M,0.0,0000*7F

$GPGGA,054749.733,5122.6021,N,00728.3922,E,1,06,1.3,203.6,M,47.5,M,0.0,0000*7D

$GPGGA,054750.733,5122.6062,N,00728.3979,E,1,05,1.5,203.7,M,47.5,M,0.0,0000*78

$GPGGA,054751.733,5122.6105,N,00728.4036,E,1,05,1.3,203.7,M,47.5,M,0.0,0000*7A

$GPGGA,054752.733,5122.6152,N,00728.4095,E,1,05,1.3,203.7,M,47.5,M,0.0,0000*72

$GPGGA,054753.733,5122.6200,N,00728.4155,E,1,05,1.3,203.8,M,47.5,M,0.0,0000*75

$GPGGA,054754.733,5122.6248,N,00728.4211,E,1,05,1.3,204.1,M,47.5,M,0.0,0000*73

$GPGGA,054755.733,5122.6297,N,00728.4267,E,1,05,1.3,204.7,M,47.5,M,0.0,0000*77

$GPGGA,054756.733,5122.6345,N,00728.4323,E,1,06,1.3,205.2,M,47.5,M,0.0,0000*7C

$GPGGA,054757.733,5122.6393,N,00728.4379,E,1,05,1.3,205.5,M,47.5,M,0.0,0000*7D

$GPGGA,054758.733,5122.6438,N,00728.4432,E,1,04,1.8,205.5,M,47.5,M,0.0,0000*76

$GPGGA,054759.733,5122.6480,N,00728.4484,E,1,04,1.8,205.2,M,47.5,M,0.0,0000*7E

$GPGGA,054800.733,5122.6521,N,00728.4534,E,1,04,1.8,205.0,M,47.5,M,0.0,0000*7F

$GPGGA,054801.733,5122.6559,N,00728.4580,E,1,04,1.8,204.7,M,47.5,M,0.0,0000*78

$GPGGA,054802.733,5122.6593,N,00728.4622,E,1,04,1.8,204.6,M,47.5,M,0.0,0000*77

$GPGGA,054803.732,5122.6624,N,00728.4660,E,1,04,1.8,204.4,M,47.5,M,0.0,0000*7C

$GPGGA,054804.732,5122.6650,N,00728.4691,E,1,05,1.3,204.4,M,47.5,M,0.0,0000*7C

$GPGGA,054805.732,5122.6670,N,00728.4716,E,1,04,1.8,204.2,M,47.5,M,0.0,0000*7D

$GPGGA,054806.732,5122.6686,N,00728.4735,E,1,05,1.3,204.2,M,47.5,M,0.0,0000*7C

$GPGGA,054807.732,5122.6697,N,00728.4747,E,1,04,1.8,204.1,M,47.5,M,0.0,0000*71

$GPGGA,054808.732,5122.6703,N,00728.4753,E,1,05,1.5,204.0,M,47.5,M,0.0,0000*7A

$GPGGA,054809.732,5122.6705,N,00728.4755,E,1,05,1.5,203.8,M,47.5,M,0.0,0000*74

$GPGGA,054810.732,5122.6705,N,00728.4754,E,1,05,1.5,203.7,M,47.5,M,0.0,0000*72

$GPGGA,054811.732,5122.6704,N,00728.4751,E,1,05,1.5,203.5,M,47.5,M,0.0,0000*75

$GPGGA,054812.732,5122.6704,N,00728.4751,E,1,05,1.5,203.2,M,47.5,M,0.0,0000*71

$GPGGA,054813.732,5122.6710,N,00728.4756,E,1,05,1.5,202.9,M,47.5,M,0.0,0000*78

$GPGGA,054814.732,5122.6725,N,00728.4772,E,1,04,1.8,202.8,M,47.5,M,0.0,0000*72

$GPGGA,054815.732,5122.6751,N,00728.4798,E,1,05,1.5,202.5,M,47.5,M,0.0,0000*75

$GPGGA,054816.732,5122.6782,N,00728.4831,E,1,04,1.8,202.2,M,47.5,M,0.0,0000*7F

$GPGGA,054817.732,5122.6816,N,00728.4875,E,1,04,1.8,201.8,M,47.5,M,0.0,0000*75

$GPGGA,054818.732,5122.6853,N,00728.4929,E,1,04,1.8,201.3,M,47.5,M,0.0,0000*78

$GPGGA,054819.732,5122.6892,N,00728.4983,E,1,06,1.3,201.3,M,47.5,M,0.0,0000*7D

$GPGGA,054820.731,5122.6929,N,00728.5016,E,1,04,13.0,0.0,M,47.5,M,0.0,0000*43

$GPGGA,054821.731,5122.6973,N,00728.5086,E,1,06,1.3,200.7,M,47.5,M,0.0,0000*73

$GPGGA,054822.731,5122.7015,N,00728.5135,E,1,06,1.3,201.0,M,47.5,M,0.0,0000*77

$GPGGA,054823.731,5122.7059,N,00728.5189,E,1,06,1.3,201.5,M,47.5,M,0.0,0000*7C

$GPGGA,054824.731,5122.7104,N,00728.5244,E,1,06,1.3,201.8,M,47.5,M,0.0,0000*7D

$GPGGA,054825.731,5122.7149,N,00728.5299,E,1,06,1.3,202.0,M,47.5,M,0.0,0000*7E

$GPGGA,054826.731,5122.7197,N,00728.5356,E,1,06,1.3,202.0,M,47.5,M,0.0,0000*7C

$GPGGA,054827.731,5122.7247,N,00728.5414,E,1,06,1.3,202.1,M,47.5,M,0.0,0000*73

$GPGGA,054828.731,5122.7298,N,00728.5476,E,1,04,1.8,201.9,M,47.5,M,0.0,0000*78

$GPGGA,054829.731,5122.7349,N,00728.5537,E,1,05,1.3,201.8,M,47.5,M,0.0,0000*7B

$GPGGA,054830.731,5122.7400,N,00728.5599,E,1,06,1.3,202.0,M,47.5,M,0.0,0000*75

$GPGGA,054831.731,5122.7452,N,00728.5661,E,1,06,1.3,202.4,M,47.5,M,0.0,0000*73

$GPGGA,054832.731,5122.7504,N,00728.5724,E,1,06,1.3,202.7,M,47.5,M,0.0,0000*71

$GPGGA,054833.731,5122.7557,N,00728.5787,E,1,06,1.3,203.3,M,47.5,M,0.0,0000*7A

$GPGGA,054834.731,5122.7608,N,00728.5851,E,1,04,1.8,203.7,M,47.5,M,0.0,0000*7D

$GPGGA,054835.731,5122.7658,N,00728.5913,E,1,06,1.3,204.0,M,47.5,M,0.0,0000*77

$GPGGA,054836.730,5122.7704,N,00728.5970,E,1,06,1.3,204.2,M,47.5,M,0.0,0000*7A

$GPGGA,054837.730,5122.7744,N,00728.6020,E,1,06,1.3,204.1,M,47.5,M,0.0,0000*73

$GPGGA,054838.730,5122.7779,N,00728.6065,E,1,05,1.3,204.1,M,47.5,M,0.0,0000*70

$GPGGA,054839.730,5122.7810,N,00728.6106,E,1,05,1.3,204.2,M,47.5,M,0.0,0000*76

$GPGGA,054840.730,5122.7839,N,00728.6142,E,1,04,1.8,204.2,M,47.5,M,0.0,0000*79

$GPGGA,054841.730,5122.7862,N,00728.6173,E,1,04,1.8,204.1,M,47.5,M,0.0,0000*77

$GPGGA,054842.730,5122.7881,N,00728.6199,E,1,04,1.8,204.0,M,47.5,M,0.0,0000*7C

$GPGGA,054843.730,5122.7895,N,00728.6218,E,1,04,1.8,203.8,M,47.5,M,0.0,0000*7D

$GPGGA,054844.730,5122.7903,N,00728.6230,E,1,05,1.5,203.5,M,47.5,M,0.0,0000*7F

$GPGGA,054845.730,5122.7908,N,00728.6237,E,1,04,1.8,203.1,M,47.5,M,0.0,0000*7A

$GPGGA,054846.730,5122.7909,N,00728.6240,E,1,04,1.8,202.6,M,47.5,M,0.0,0000*7E

$GPGGA,054847.730,5122.7908,N,00728.6238,E,1,05,1.5,202.1,M,47.5,M,0.0,0000*7A

$GPGGA,054848.730,5122.7908,N,00728.6236,E,1,05,1.5,201.6,M,47.5,M,0.0,0000*7F

$GPGGA,054849.730,5122.7907,N,00728.6234,E,1,05,1.5,201.1,M,47.5,M,0.0,0000*74

$GPGGA,054850.730,5122.7907,N,00728.6233,E,1,05,1.5,200.6,M,47.5,M,0.0,0000*7D

$GPGGA,054851.730,5122.7906,N,00728.6232,E,1,05,1.5,200.2,M,47.5,M,0.0,0000*78

$GPGGA,054852.729,5122.7906,N,00728.6230,E,1,05,1.5,199.9,M,47.5,M,0.0,0000*79

$GPGGA,054853.729,5122.7906,N,00728.6227,E,1,05,1.5,199.7,M,47.5,M,0.0,0000*70

$GPGGA,054854.729,5122.7906,N,00728.6225,E,1,05,1.5,199.5,M,47.5,M,0.0,0000*77

$GPGGA,054855.729,5122.7906,N,00728.6222,E,1,05,1.5,199.6,M,47.5,M,0.0,0000*72

$GPGGA,054856.729,5122.7906,N,00728.6221,E,1,05,1.5,199.7,M,47.5,M,0.0,0000*73

$GPGGA,054857.729,5122.7905,N,00728.6220,E,1,04,1.8,199.9,M,47.5,M,0.0,0000*72

$GPGGA,054858.729,5122.7905,N,00728.6222,E,1,05,1.5,200.1,M,47.5,M,0.0,0000*78

$GPGGA,054859.729,5122.7909,N,00728.6229,E,1,04,1.8,200.3,M,47.5,M,0.0,0000*70

$GPGGA,054900.729,5122.7922,N,00728.6246,E,1,05,1.3,200.7,M,47.5,M,0.0,0000*73

$GPGGA,054901.729,5122.7943,N,00728.6272,E,1,04,1.8,201.0,M,47.5,M,0.0,0000*7E

$GPGGA,054902.729,5122.7967,N,00728.6304,E,1,05,1.5,201.0,M,47.5,M,0.0,0000*77

$GPGGA,054903.729,5122.7999,N,00728.6345,E,1,05,1.5,201.3,M,47.5,M,0.0,0000*71

$GPGGA,054904.729,5122.8039,N,00728.6395,E,1,06,1.3,201.6,M,47.5,M,0.0,0000*77

$GPGGA,054905.729,5122.8082,N,00728.6450,E,1,06,1.3,201.9,M,47.5,M,0.0,0000*77

$GPGGA,054906.729,5122.8126,N,00728.6506,E,1,06,1.3,202.1,M,47.5,M,0.0,0000*72

$GPGGA,054907.729,5122.8173,N,00728.6567,E,1,04,2.0,202.2,M,47.5,M,0.0,0000*75

$GPGGA,054908.729,5122.8223,N,00728.6632,E,1,06,1.3,202.3,M,47.5,M,0.0,0000*7C

$GPGGA,054909.728,5122.8272,N,00728.6696,E,1,06,1.3,202.3,M,47.5,M,0.0,0000*76

$GPGGA,054910.728,5122.8322,N,00728.6759,E,1,06,1.3,202.4,M,47.5,M,0.0,0000*7F

$GPGGA,054911.728,5122.8370,N,00728.6819,E,1,06,1.3,202.5,M,47.5,M,0.0,0000*73

$GPGGA,054912.728,5122.8416,N,00728.6875,E,1,06,1.3,202.8,M,47.5,M,0.0,0000*70

$GPGGA,054913.728,5122.8458,N,00728.6927,E,1,06,1.3,203.2,M,47.5,M,0.0,0000*76

$GPGGA,054914.728,5122.8495,N,00728.6972,E,1,04,2.1,203.5,M,47.5,M,0.0,0000*74

$GPGGA,054915.728,5122.8525,N,00728.7009,E,1,06,1.3,203.8,M,47.5,M,0.0,0000*75

$GPGGA,054916.728,5122.8549,N,00728.7039,E,1,06,1.3,204.1,M,47.5,M,0.0,0000*71

$GPGGA,054917.728,5122.8568,N,00728.7061,E,1,06,1.3,204.4,M,47.5,M,0.0,0000*7B

$GPGGA,054918.728,5122.8581,N,00728.7076,E,1,04,1.8,204.5,M,47.5,M,0.0,0000*7D

$GPGGA,054919.728,5122.8590,N,00728.7087,E,1,06,1.3,204.3,M,47.5,M,0.0,0000*7D

$GPGGA,054920.728,5122.8594,N,00728.7092,E,1,05,1.7,204.0,M,47.5,M,0.0,0000*73

$GPGGA,054921.728,5122.8595,N,00728.7095,E,1,06,1.3,204.1,M,47.5,M,0.0,0000*72

$GPGGA,054922.728,5122.8595,N,00728.7096,E,1,06,1.3,204.6,M,47.5,M,0.0,0000*75

$GPGGA,054923.728,5122.8596,N,00728.7098,E,1,06,1.3,205.3,M,47.5,M,0.0,0000*7D

$GPGGA,054924.728,5122.8597,N,00728.7099,E,1,06,1.3,206.0,M,47.5,M,0.0,0000*7A

$GPGGA,054925.727,5122.8597,N,00728.7101,E,1,06,1.3,206.6,M,47.5,M,0.0,0000*72

$GPGGA,054926.727,5122.8598,N,00728.7101,E,1,06,1.3,207.1,M,47.5,M,0.0,0000*78

$GPGGA,054927.727,5122.8598,N,00728.7101,E,1,06,1.3,207.4,M,47.5,M,0.0,0000*7C

$GPGGA,054928.727,5122.8598,N,00728.7101,E,1,06,1.3,207.7,M,47.5,M,0.0,0000*70

$GPGGA,054929.727,5122.8598,N,00728.7101,E,1,06,1.3,208.0,M,47.5,M,0.0,0000*79

$GPGGA,054930.727,5122.8598,N,00728.7102,E,1,06,1.3,208.5,M,47.5,M,0.0,0000*77

$GPGGA,054931.727,5122.8600,N,00728.7105,E,1,06,1.3,208.6,M,47.5,M,0.0,0000*70

$GPGGA,054932.727,5122.8609,N,00728.7115,E,1,06,1.3,208.4,M,47.5,M,0.0,0000*79

$GPGGA,054933.727,5122.8625,N,00728.7136,E,1,06,1.3,208.2,M,47.5,M,0.0,0000*71

$GPGGA,054934.727,5122.8646,N,00728.7161,E,1,06,1.3,208.1,M,47.5,M,0.0,0000*72

$GPGGA,054935.727,5122.8668,N,00728.7190,E,1,06,1.3,207.8,M,47.5,M,0.0,0000*77

$GPGGA,054936.727,5122.8697,N,00728.7223,E,1,06,1.3,207.4,M,47.5,M,0.0,0000*73

$GPGGA,054937.727,5122.8732,N,00728.7265,E,1,06,1.3,207.3,M,47.5,M,0.0,0000*79

$GPGGA,054938.727,5122.8774,N,00728.7314,E,1,06,1.3,207.3,M,47.5,M,0.0,0000*73

$GPGGA,054939.727,5122.8813,N,00728.7345,E,1,04,26.5,0.0,M,47.5,M,0.0,0000*4F

$GPGGA,054940.727,5122.8866,N,00728.7417,E,1,06,1.3,207.7,M,47.5,M,0.0,0000*70

$GPGGA,054941.727,5122.8914,N,00728.7473,E,1,05,1.3,208.2,M,47.5,M,0.0,0000*7E

$GPGGA,054942.726,5122.8963,N,00728.7532,E,1,05,1.5,208.1,M,47.5,M,0.0,0000*7D

$GPGGA,054943.726,5122.9013,N,00728.7595,E,1,04,1.8,207.7,M,47.5,M,0.0,0000*7B

$GPGGA,054944.726,5122.9065,N,00728.7658,E,1,05,1.3,207.4,M,47.5,M,0.0,0000*76

$GPGGA,054945.726,5122.9116,N,00728.7722,E,1,04,3.3,207.3,M,47.5,M,0.0,0000*7A

$GPGGA,054946.726,5122.9166,N,00728.7785,E,1,04,2.2,207.3,M,47.5,M,0.0,0000*73

$GPGGA,054947.726,5122.9217,N,00728.7847,E,1,04,2.2,207.5,M,47.5,M,0.0,0000*70

$GPGGA,054948.726,5122.9268,N,00728.7906,E,1,05,1.5,207.9,M,47.5,M,0.0,0000*7A

$GPGGA,054949.726,5122.9322,N,00728.7961,E,1,04,1.8,208.3,M,47.5,M,0.0,0000*7C

$GPGGA,054950.726,5122.9378,N,00728.8013,E,1,03,18.8,208.5,M,47.5,M,0.0,0000*41

$GPGGA,054951.726,5122.9435,N,00728.8050,E,1,05,2.0,209.7,M,47.5,M,0.0,0000*7F

$GPGGA,054952.726,5122.9493,N,00728.8094,E,1,04,1.8,210.3,M,47.5,M,0.0,0000*7E

$GPGGA,054953.726,5122.9551,N,00728.8137,E,1,04,1.8,210.3,M,47.5,M,0.0,0000*78

$GPGGA,054954.726,5122.9608,N,00728.8178,E,1,03,6.9,209.9,M,47.5,M,0.0,0000*78

$GPGGA,054955.726,5122.9661,N,00728.8221,E,1,06,1.3,205.8,M,47.5,M,0.0,0000*7C

$GPGGA,054956.726,5122.9707,N,00728.8252,E,1,05,1.7,204.8,M,47.5,M,0.0,0000*7C

$GPGGA,054957.726,5122.9748,N,00728.8277,E,1,05,1.7,204.5,M,47.5,M,0.0,0000*7C

$GPGGA,054958.725,5122.9786,N,00728.8298,E,1,06,1.3,204.5,M,47.5,M,0.0,0000*74

$GPGGA,054959.725,5122.9818,N,00728.8314,E,1,06,1.3,204.1,M,47.5,M,0.0,0000*7C

$GPGGA,055000.725,5122.9844,N,00728.8328,E,1,06,1.3,203.8,M,47.5,M,0.0,0000*70

$GPGGA,055001.725,5122.9865,N,00728.8341,E,1,06,1.3,203.6,M,47.5,M,0.0,0000*73

$GPGGA,055002.725,5122.9877,N,00728.8350,E,1,06,1.3,203.3,M,47.5,M,0.0,0000*76

$GPGGA,055003.725,5122.9881,N,00728.8353,E,1,06,1.3,202.7,M,47.5,M,0.0,0000*78

$GPGGA,055004.725,5122.9880,N,00728.8352,E,1,06,1.3,202.2,M,47.5,M,0.0,0000*7A

$GPGGA,055005.725,5122.9877,N,00728.8349,E,1,06,1.3,201.7,M,47.5,M,0.0,0000*7F

$GPGGA,055006.725,5122.9873,N,00728.8345,E,1,06,1.3,201.4,M,47.5,M,0.0,0000*77

$GPGGA,055007.725,5122.9870,N,00728.8341,E,1,06,1.3,201.2,M,47.5,M,0.0,0000*77

$GPGGA,055008.725,5122.9867,N,00728.8339,E,1,06,1.3,201.2,M,47.5,M,0.0,0000*71

$GPGGA,055009.725,5122.9865,N,00728.8337,E,1,06,1.3,201.4,M,47.5,M,0.0,0000*7A

$GPGGA,055010.725,5122.9862,N,00728.8337,E,1,06,1.3,201.7,M,47.5,M,0.0,0000*76

$GPGGA,055011.725,5122.9860,N,00728.8338,E,1,06,1.3,201.8,M,47.5,M,0.0,0000*75

$GPGGA,055012.725,5122.9858,N,00728.8340,E,1,06,1.3,201.8,M,47.5,M,0.0,0000*72

$GPGGA,055013.725,5122.9855,N,00728.8343,E,1,06,1.3,202.1,M,47.5,M,0.0,0000*77

$GPGGA,055014.724,5122.9853,N,00728.8346,E,1,05,1.5,202.4,M,47.5,M,0.0,0000*72

$GPGGA,055015.724,5122.9851,N,00728.8348,E,1,04,1.8,202.9,M,47.5,M,0.0,0000*7E

$GPGGA,055016.724,5122.9849,N,00728.8351,E,1,04,1.8,203.6,M,47.5,M,0.0,0000*72

$GPGGA,055017.724,5122.9848,N,00728.8353,E,1,04,1.8,204.1,M,47.5,M,0.0,0000*70

$GPGGA,055018.724,5122.9846,N,00728.8356,E,1,06,1.3,204.2,M,47.5,M,0.0,0000*7E

$GPGGA,055019.724,5122.9843,N,00728.8361,E,1,06,1.3,204.3,M,47.5,M,0.0,0000*7F

$GPGGA,055020.724,5122.9840,N,00728.8365,E,1,06,1.3,204.2,M,47.5,M,0.0,0000*73

$GPGGA,055021.724,5122.9838,N,00728.8368,E,1,06,1.3,204.0,M,47.5,M,0.0,0000*72

$GPGGA,055022.724,5122.9835,N,00728.8370,E,1,06,1.3,203.8,M,47.5,M,0.0,0000*7A

$GPGGA,055023.724,5122.9833,N,00728.8371,E,1,06,1.3,203.5,M,47.5,M,0.0,0000*71

$GPGGA,055024.724,5122.9831,N,00728.8371,E,1,06,1.3,202.9,M,47.5,M,0.0,0000*79

$GPGGA,055025.724,5122.9829,N,00728.8371,E,1,06,1.3,202.2,M,47.5,M,0.0,0000*7A

$GPGGA,055026.724,5122.9827,N,00728.8371,E,1,06,1.3,201.5,M,47.5,M,0.0,0000*73

$GPGGA,055027.724,5122.9827,N,00728.8372,E,1,06,1.3,200.9,M,47.5,M,0.0,0000*7C

$GPGGA,055028.724,5122.9827,N,00728.8374,E,1,06,1.3,200.5,M,47.5,M,0.0,0000*79

$GPGGA,055029.724,5122.9828,N,00728.8378,E,1,06,1.3,200.2,M,47.5,M,0.0,0000*7C

$GPGGA,055030.724,5122.9829,N,00728.8380,E,1,07,1.0,199.8,M,47.5,M,0.0,0000*79

$GPGGA,055031.723,5122.9831,N,00728.8381,E,1,07,1.0,199.2,M,47.5,M,0.0,0000*7D

$GPGGA,055032.723,5122.9834,N,00728.8381,E,1,07,1.0,198.7,M,47.5,M,0.0,0000*7F

$GPGGA,055033.723,5122.9837,N,00728.8379,E,1,07,1.0,198.2,M,47.5,M,0.0,0000*7F

$GPGGA,055034.723,5122.9840,N,00728.8377,E,1,07,1.0,197.9,M,47.5,M,0.0,0000*72

$GPGGA,055035.723,5122.9843,N,00728.8376,E,1,07,1.0,197.8,M,47.5,M,0.0,0000*70

$GPGGA,055036.723,5122.9846,N,00728.8374,E,1,07,1.0,197.9,M,47.5,M,0.0,0000*75

$GPGGA,055037.723,5122.9849,N,00728.8372,E,1,07,1.0,198.1,M,47.5,M,0.0,0000*7A

$GPGGA,055038.723,5122.9851,N,00728.8370,E,1,07,1.0,198.3,M,47.5,M,0.0,0000*7C

$GPGGA,055039.723,5122.9854,N,00728.8368,E,1,07,1.0,198.5,M,47.5,M,0.0,0000*77

$GPGGA,055040.723,5122.9858,N,00728.8368,E,1,07,1.0,198.5,M,47.5,M,0.0,0000*75

$GPGGA,055041.723,5122.9867,N,00728.8372,E,1,07,1.0,198.3,M,47.5,M,0.0,0000*75

$GPGGA,055042.723,5122.9884,N,00728.8383,E,1,06,1.0,198.3,M,47.5,M,0.0,0000*74

$GPGGA,055043.723,5122.9903,N,00728.8405,E,1,06,1.0,198.5,M,47.5,M,0.0,0000*74

$GPGGA,055044.723,5122.9918,N,00728.8437,E,1,07,1.0,198.8,M,47.5,M,0.0,0000*74

$GPGGA,055045.723,5122.9919,N,00728.8479,E,1,07,1.0,199.3,M,47.5,M,0.0,0000*74

$GPGGA,055046.723,5122.9905,N,00728.8531,E,1,07,1.0,200.1,M,47.5,M,0.0,0000*76

$GPGGA,055047.722,5122.9878,N,00728.8590,E,1,07,1.0,200.9,M,47.5,M,0.0,0000*7E

$GPGGA,055048.722,5122.9843,N,00728.8657,E,1,06,1.3,201.8,M,47.5,M,0.0,0000*73

$GPGGA,055049.722,5122.9803,N,00728.8729,E,1,06,1.3,202.8,M,47.5,M,0.0,0000*7D

$GPGGA,055050.722,5122.9762,N,00728.8803,E,1,06,1.3,203.8,M,47.5,M,0.0,0000*7B

$GPGGA,055051.722,5122.9721,N,00728.8878,E,1,06,1.3,204.7,M,47.5,M,0.0,0000*79

$GPGGA,055052.722,5122.9678,N,00728.8957,E,1,07,1.0,206.1,M,47.5,M,0.0,0000*7D

$GPGGA,055053.722,5122.9633,N,00728.9041,E,1,07,1.0,207.7,M,47.5,M,0.0,0000*7B

$GPGGA,055054.722,5122.9586,N,00728.9129,E,1,07,1.0,209.3,M,47.5,M,0.0,0000*74

$GPGGA,055055.722,5122.9538,N,00728.9218,E,1,06,1.3,210.7,M,47.5,M,0.0,0000*7F

$GPGGA,055056.722,5122.9491,N,00728.9305,E,1,06,1.3,211.8,M,47.5,M,0.0,0000*7D

$GPGGA,055057.722,5122.9444,N,00728.9392,E,1,06,1.3,212.9,M,47.5,M,0.0,0000*78

$GPGGA,055058.722,5122.9397,N,00728.9481,E,1,06,1.3,214.1,M,47.5,M,0.0,0000*75

$GPGGA,055059.722,5122.9350,N,00728.9574,E,1,06,1.3,215.3,M,47.5,M,0.0,0000*77

$GPGGA,055100.722,5122.9304,N,00728.9669,E,1,06,1.3,216.4,M,47.5,M,0.0,0000*70

$GPGGA,055101.722,5122.9257,N,00728.9764,E,1,05,2.6,217.6,M,47.5,M,0.0,0000*7C

$GPGGA,055102.722,5122.9211,N,00728.9860,E,1,06,1.3,218.8,M,47.5,M,0.0,0000*72

$GPGGA,055103.722,5122.9165,N,00728.9956,E,1,06,1.3,220.0,M,47.5,M,0.0,0000*74

$GPGGA,055104.721,5122.9116,N,00729.0051,E,1,06,1.3,221.3,M,47.5,M,0.0,0000*70

$GPGGA,055105.721,5122.9064,N,00729.0144,E,1,04,2.2,222.5,M,47.5,M,0.0,0000*75

$GPGGA,055106.721,5122.9010,N,00729.0236,E,1,06,1.3,223.6,M,47.5,M,0.0,0000*71

$GPGGA,055107.721,5122.8955,N,00729.0328,E,1,06,1.3,224.8,M,47.5,M,0.0,0000*7E

$GPGGA,055108.721,5122.8901,N,00729.0418,E,1,06,1.3,226.0,M,47.5,M,0.0,0000*7E

$GPGGA,055109.721,5122.8845,N,00729.0504,E,1,06,1.3,227.1,M,47.5,M,0.0,0000*72

$GPGGA,055110.721,5122.8786,N,00729.0588,E,1,05,1.8,228.2,M,47.5,M,0.0,0000*7A

$GPGGA,055111.721,5122.8727,N,00729.0669,E,1,05,2.6,229.2,M,47.5,M,0.0,0000*70

$GPGGA,055112.721,5122.8668,N,00729.0749,E,1,05,1.8,230.0,M,47.5,M,0.0,0000*7D

$GPGGA,055113.721,5122.8608,N,00729.0829,E,1,05,1.8,230.5,M,47.5,M,0.0,0000*76

$GPGGA,055114.721,5122.8549,N,00729.0906,E,1,06,1.3,230.7,M,47.5,M,0.0,0000*71

$GPGGA,055115.721,5122.8488,N,00729.0982,E,1,06,1.3,231.0,M,47.5,M,0.0,0000*76

$GPGGA,055116.721,5122.8426,N,00729.1053,E,1,06,1.3,231.0,M,47.5,M,0.0,0000*75

$GPGGA,055117.721,5122.8365,N,00729.1124,E,1,06,1.3,231.1,M,47.5,M,0.0,0000*74

$GPGGA,055118.721,5122.8305,N,00729.1192,E,1,05,1.4,231.0,M,47.5,M,0.0,0000*75

$GPGGA,055119.721,5122.8246,N,00729.1261,E,1,05,1.4,230.9,M,47.5,M,0.0,0000*75

$GPGGA,055120.720,5122.8190,N,00729.1330,E,1,06,1.3,230.9,M,47.5,M,0.0,0000*77

$GPGGA,055121.720,5122.8134,N,00729.1400,E,1,06,1.3,230.9,M,47.5,M,0.0,0000*7C

$GPGGA,055122.720,5122.8076,N,00729.1468,E,1,06,1.3,230.9,M,47.5,M,0.0,0000*76

$GPGGA,055123.720,5122.8018,N,00729.1534,E,1,04,2.2,231.1,M,47.5,M,0.0,0000*7E

$GPGGA,055124.720,5122.7961,N,00729.1600,E,1,06,1.3,231.2,M,47.5,M,0.0,0000*76

$GPGGA,055125.720,5122.7908,N,00729.1666,E,1,05,1.8,231.3,M,47.5,M,0.0,0000*71

$GPGGA,055126.720,5122.7857,N,00729.1731,E,1,06,1.3,231.4,M,47.5,M,0.0,0000*75

$GPGGA,055127.720,5122.7807,N,00729.1793,E,1,06,1.3,231.3,M,47.5,M,0.0,0000*7E

$GPGGA,055128.720,5122.7756,N,00729.1850,E,1,05,1.8,231.4,M,47.5,M,0.0,0000*75

$GPGGA,055129.720,5122.7705,N,00729.1905,E,1,05,1.8,231.5,M,47.5,M,0.0,0000*72

$GPGGA,055130.720,5122.7659,N,00729.1961,E,1,05,1.8,231.7,M,47.5,M,0.0,0000*72

$GPGGA,055131.720,5122.7617,N,00729.2016,E,1,05,1.8,231.8,M,47.5,M,0.0,0000*7C

$GPGGA,055132.720,5122.7581,N,00729.2067,E,1,05,1.8,231.8,M,47.5,M,0.0,0000*75

$GPGGA,055133.720,5122.7549,N,00729.2112,E,1,05,1.8,231.7,M,47.5,M,0.0,0000*7C

$GPGGA,055134.720,5122.7522,N,00729.2150,E,1,06,1.3,231.4,M,47.5,M,0.0,0000*7B

$GPGGA,055135.720,5122.7498,N,00729.2182,E,1,05,1.8,231.0,M,47.5,M,0.0,0000*79

$GPGGA,055136.719,5122.7478,N,00729.2210,E,1,05,1.8,230.7,M,47.5,M,0.0,0000*70

$GPGGA,055137.719,5122.7463,N,00729.2234,E,1,05,1.8,230.5,M,47.5,M,0.0,0000*7F

$GPGGA,055138.719,5122.7453,N,00729.2252,E,1,06,1.3,230.7,M,47.5,M,0.0,0000*79

$GPGGA,055139.719,5122.7447,N,00729.2263,E,1,05,1.8,230.7,M,47.5,M,0.0,0000*77

$GPGGA,055140.719,5122.7446,N,00729.2269,E,1,05,1.8,230.5,M,47.5,M,0.0,0000*70

$GPGGA,055141.719,5122.7448,N,00729.2275,E,1,06,1.3,231.4,M,47.5,M,0.0,0000*7A

$GPGGA,055142.719,5122.7451,N,00729.2280,E,1,06,1.3,232.8,M,47.5,M,0.0,0000*74

$GPGGA,055143.719,5122.7454,N,00729.2288,E,1,06,1.3,234.7,M,47.5,M,0.0,0000*71

$GPGGA,055144.719,5122.7458,N,00729.2298,E,1,06,1.3,237.1,M,47.5,M,0.0,0000*7E

$GPGGA,055145.719,5122.7461,N,00729.2307,E,1,06,1.3,239.1,M,47.5,M,0.0,0000*7C

$GPGGA,055146.719,5122.7464,N,00729.2314,E,1,06,1.3,240.7,M,47.5,M,0.0,0000*70

$GPGGA,055147.719,5122.7468,N,00729.2319,E,1,06,1.3,242.1,M,47.5,M,0.0,0000*74

$GPGGA,055148.719,5122.7470,N,00729.2322,E,1,06,1.3,242.9,M,47.5,M,0.0,0000*72

$GPGGA,055149.719,5122.7472,N,00729.2322,E,1,06,1.3,243.4,M,47.5,M,0.0,0000*7D

$GPGGA,055150.719,5122.7473,N,00729.2320,E,1,06,1.3,243.5,M,47.5,M,0.0,0000*77

$GPGGA,055151.719,5122.7474,N,00729.2320,E,1,06,1.3,243.4,M,47.5,M,0.0,0000*70

$GPGGA,055152.719,5122.7475,N,00729.2317,E,1,06,1.3,242.7,M,47.5,M,0.0,0000*74

$GPGGA,055153.718,5122.7476,N,00729.2315,E,1,06,1.3,241.6,M,47.5,M,0.0,0000*77

$GPGGA,055154.718,5122.7477,N,00729.2314,E,1,06,1.3,240.6,M,47.5,M,0.0,0000*71

$GPGGA,055155.718,5122.7478,N,00729.2312,E,1,06,1.3,239.5,M,47.5,M,0.0,0000*74

$GPGGA,055156.718,5122.7479,N,00729.2309,E,1,06,1.3,238.8,M,47.5,M,0.0,0000*70

$GPGGA,055157.718,5122.7478,N,00729.2304,E,1,06,1.3,238.6,M,47.5,M,0.0,0000*73

$GPGGA,055158.718,5122.7477,N,00729.2298,E,1,06,1.3,238.7,M,47.5,M,0.0,0000*76

$GPGGA,055159.718,5122.7476,N,00729.2291,E,1,06,1.3,238.8,M,47.5,M,0.0,0000*70

$GPGGA,055200.718,5122.7475,N,00729.2283,E,1,05,1.8,238.7,M,47.5,M,0.0,0000*78

$GPGGA,055201.718,5122.7475,N,00729.2276,E,1,05,1.8,238.6,M,47.5,M,0.0,0000*72

$GPGGA,055202.718,5122.7476,N,00729.2272,E,1,05,1.8,238.4,M,47.5,M,0.0,0000*74

$GPGGA,055203.718,5122.7477,N,00729.2269,E,1,05,1.8,238.1,M,47.5,M,0.0,0000*7B

$GPGGA,055204.718,5122.7478,N,00729.2268,E,1,05,1.8,237.8,M,47.5,M,0.0,0000*74

$GPGGA,055205.718,5122.7477,N,00729.2272,E,1,04,2.1,237.7,M,47.5,M,0.0,0000*75

$GPGGA,055206.718,5122.7472,N,00729.2283,E,1,03,6.3,237.6,M,47.5,M,0.0,0000*7D

$GPGGA,055207.718,5122.7456,N,00729.2309,E,1,05,1.8,235.7,M,47.5,M,0.0,0000*70

$GPGGA,055208.718,5122.7435,N,00729.2336,E,1,05,1.8,235.1,M,47.5,M,0.0,0000*70

$GPGGA,055209.717,5122.7409,N,00729.2360,E,1,05,1.8,234.7,M,47.5,M,0.0,0000*75

$GPGGA,055210.717,5122.7375,N,00729.2377,E,1,06,1.3,235.1,M,47.5,M,0.0,0000*78

$GPGGA,055211.717,5122.7336,N,00729.2370,E,1,05,1.8,235.4,M,47.5,M,0.0,0000*74

$GPGGA,055212.717,5122.7291,N,00729.2352,E,1,06,1.3,235.9,M,47.5,M,0.0,0000*7E

$GPGGA,055213.717,5122.7243,N,00729.2332,E,1,06,1.3,236.3,M,47.5,M,0.0,0000*7F

$GPGGA,055214.717,5122.7191,N,00729.2314,E,1,06,1.3,236.9,M,47.5,M,0.0,0000*7A

$GPGGA,055215.717,5122.7136,N,00729.2294,E,1,07,1.0,237.5,M,47.5,M,0.0,0000*70

$GPGGA,055216.717,5122.7079,N,00729.2274,E,1,06,1.3,238.0,M,47.5,M,0.0,0000*7F

$GPGGA,055217.717,5122.7019,N,00729.2258,E,1,06,1.3,238.6,M,47.5,M,0.0,0000*70

$GPGGA,055218.717,5122.6960,N,00729.2242,E,1,06,1.3,239.0,M,47.5,M,0.0,0000*75

$GPGGA,055219.717,5122.6903,N,00729.2227,E,1,06,1.3,239.5,M,47.5,M,0.0,0000*77

$GPGGA,055220.717,5122.6853,N,00729.2213,E,1,06,1.3,239.8,M,47.5,M,0.0,0000*73

$GPGGA,055221.717,5122.6812,N,00729.2201,E,1,06,1.3,240.2,M,47.5,M,0.0,0000*70

$GPGGA,055222.717,5122.6783,N,00729.2196,E,1,06,1.3,241.3,M,47.5,M,0.0,0000*79

$GPGGA,055223.717,5122.6766,N,00729.2195,E,1,06,1.3,242.5,M,47.5,M,0.0,0000*75

$GPGGA,055224.717,5122.6757,N,00729.2197,E,1,06,1.3,243.6,M,47.5,M,0.0,0000*70

$GPGGA,055225.717,5122.6743,N,00729.2206,E,1,07,1.0,244.5,M,47.5,M,0.0,0000*79

$GPGGA,055226.716,5122.6726,N,00729.2232,E,1,07,1.0,245.2,M,47.5,M,0.0,0000*79

$GPGGA,055227.716,5122.6717,N,00729.2272,E,1,07,1.0,245.5,M,47.5,M,0.0,0000*79

$GPGGA,055228.716,5122.6719,N,00729.2313,E,1,07,1.0,245.4,M,47.5,M,0.0,0000*7F

$GPGGA,055229.716,5122.6734,N,00729.2345,E,1,07,1.0,245.1,M,47.5,M,0.0,0000*77

$GPGGA,055230.716,5122.6751,N,00729.2360,E,1,06,1.1,244.8,M,47.5,M,0.0,0000*73

$GPGGA,055231.716,5122.6762,N,00729.2363,E,1,06,1.1,244.2,M,47.5,M,0.0,0000*7B

$GPGGA,055232.716,5122.6769,N,00729.2362,E,1,06,1.1,243.0,M,47.5,M,0.0,0000*77

$GPGGA,055233.716,5122.6776,N,00729.2365,E,1,06,1.0,241.9,M,47.5,M,0.0,0000*75

$GPGGA,055234.716,5122.6780,N,00729.2368,E,1,06,1.0,240.8,M,47.5,M,0.0,0000*76

$GPGGA,055235.716,5122.6786,N,00729.2368,E,1,05,1.5,240.2,M,47.5,M,0.0,0000*7D

$GPGGA,055236.716,5122.6795,N,00729.2366,E,1,06,1.1,239.0,M,47.5,M,0.0,0000*79

$GPGGA,055237.716,5122.6800,N,00729.2366,E,1,06,1.1,239.1,M,47.5,M,0.0,0000*7A

$GPGGA,055238.716,5122.6804,N,00729.2367,E,1,06,1.1,240.1,M,47.5,M,0.0,0000*7E

$GPGGA,055239.716,5122.6807,N,00729.2369,E,1,06,1.1,241.1,M,47.5,M,0.0,0000*73

$GPGGA,055240.716,5122.6812,N,00729.2370,E,1,07,1.0,241.6,M,47.5,M,0.0,0000*76

$GPGGA,055241.716,5122.6817,N,00729.2370,E,1,05,1.2,242.2,M,47.5,M,0.0,0000*75

$GPGGA,055242.715,5122.6821,N,00729.2371,E,1,05,1.2,243.1,M,47.5,M,0.0,0000*73

$GPGGA,055243.715,5122.6826,N,00729.2373,E,1,05,1.2,244.2,M,47.5,M,0.0,0000*73

$GPGGA,055244.715,5122.6831,N,00729.2375,E,1,05,1.2,245.5,M,47.5,M,0.0,0000*72

$GPGGA,055245.715,5122.6837,N,00729.2375,E,1,05,1.2,246.6,M,47.5,M,0.0,0000*75

$GPGGA,055246.715,5122.6843,N,00729.2375,E,1,05,1.2,247.8,M,47.5,M,0.0,0000*7A

$GPGGA,055247.715,5122.6849,N,00729.2374,E,1,05,1.2,248.9,M,47.5,M,0.0,0000*7E

$GPGGA,055508.230,5122.6906,N,00729.2337,E,1,03,33.8,240.8,M,47.5,M,0.0,0000*49

$GPGGA,055509.230,5122.6855,N,00729.2257,E,1,03,33.8,240.8,M,47.5,M,0.0,0000*48

$GPGGA,055510.230,5122.6958,N,00729.2385,E,1,03,33.7,240.8,M,47.5,M,0.0,0000*4D

$GPGGA,055511.230,5122.6905,N,00729.2286,E,1,03,33.7,240.8,M,47.5,M,0.0,0000*46

$GPGGA,055512.230,5122.6863,N,00729.2210,E,1,03,33.6,240.8,M,47.5,M,0.0,0000*4A

$GPGGA,055513.230,5122.6919,N,00729.2240,E,1,04,3.3,230.9,M,47.5,M,0.0,0000*75

$GPGGA,055514.230,5122.6952,N,00729.2240,E,1,04,3.3,229.8,M,47.5,M,0.0,0000*74

$GPGGA,055515.230,5122.6979,N,00729.2247,E,1,03,33.5,229.7,M,47.5,M,0.0,0000*46

$GPGGA,055516.230,5122.7011,N,00729.2252,E,1,03,33.4,229.4,M,47.5,M,0.0,0000*45

$GPGGA,055517.230,5122.7045,N,00729.2256,E,1,03,33.4,229.6,M,47.5,M,0.0,0000*43

$GPGGA,055518.230,5122.7087,N,00729.2282,E,1,03,17.8,231.8,M,47.5,M,0.0,0000*46

$GPGGA,055519.230,5122.7126,N,00729.2317,E,1,03,17.8,233.5,M,47.5,M,0.0,0000*4F

$GPGGA,055520.230,5122.7168,N,00729.2355,E,1,03,17.8,234.4,M,47.5,M,0.0,0000*4F

$GPGGA,055521.230,5122.7204,N,00729.2389,E,1,03,17.8,235.0,M,47.5,M,0.0,0000*43

$GPGGA,055522.230,5122.7227,N,00729.2417,E,1,04,3.3,237.0,M,47.5,M,0.0,0000*7A

$GPGGA,055523.229,5122.7244,N,00729.2435,E,1,03,17.8,237.3,M,47.5,M,0.0,0000*4C

$GPGGA,055524.229,5122.7252,N,00729.2443,E,1,03,17.8,237.4,M,47.5,M,0.0,0000*4A

$GPGGA,055525.229,5122.7252,N,00729.2448,E,1,04,1.8,235.1,M,47.5,M,0.0,0000*77

$GPGGA,055526.229,5122.7252,N,00729.2446,E,1,04,1.8,233.7,M,47.5,M,0.0,0000*7A

$GPGGA,055527.229,5122.7254,N,00729.2447,E,1,04,1.8,232.7,M,47.5,M,0.0,0000*7D

$GPGGA,055528.229,5122.7260,N,00729.2454,E,1,04,1.8,232.7,M,47.5,M,0.0,0000*77

$GPGGA,055529.229,5122.7274,N,00729.2468,E,1,05,1.3,232.9,M,47.5,M,0.0,0000*78

$GPGGA,055530.229,5122.7290,N,00729.2494,E,1,04,1.8,232.9,M,47.5,M,0.0,0000*73

$GPGGA,055531.229,5122.7297,N,00729.2532,E,1,05,1.3,233.1,M,47.5,M,0.0,0000*7B

$GPGGA,055532.229,5122.7287,N,00729.2576,E,1,05,1.3,233.3,M,47.5,M,0.0,0000*7B

$GPGGA,055533.229,5122.7262,N,00729.2627,E,1,04,2.6,233.4,M,47.5,M,0.0,0000*76

$GPGGA,055534.229,5122.7225,N,00729.2692,E,1,04,2.6,233.4,M,47.5,M,0.0,0000*7C

$GPGGA,055535.229,5122.7182,N,00729.2768,E,1,04,2.6,233.2,M,47.5,M,0.0,0000*71

$GPGGA,055536.229,5122.7137,N,00729.2850,E,1,04,2.6,233.0,M,47.5,M,0.0,0000*7A

$GPGGA,055537.229,5122.7085,N,00729.2949,E,1,06,1.3,234.1,M,47.5,M,0.0,0000*78

$GPGGA,055538.229,5122.7036,N,00729.3053,E,1,06,1.3,235.2,M,47.5,M,0.0,0000*7E

$GPGGA,055539.228,5122.6991,N,00729.3157,E,1,06,1.3,236.2,M,47.5,M,0.0,0000*7D

$GPGGA,055540.228,5122.6946,N,00729.3258,E,1,06,1.3,237.0,M,47.5,M,0.0,0000*76

$GPGGA,055541.228,5122.6901,N,00729.3360,E,1,05,1.9,237.5,M,47.5,M,0.0,0000*72

$GPGGA,055542.228,5122.6856,N,00729.3463,E,1,05,1.9,238.0,M,47.5,M,0.0,0000*7C

$GPGGA,055543.228,5122.6810,N,00729.3566,E,1,05,1.9,238.4,M,47.5,M,0.0,0000*7F

$GPGGA,055544.228,5122.6764,N,00729.3669,E,1,05,1.9,238.7,M,47.5,M,0.0,0000*7B

$GPGGA,055545.228,5122.6719,N,00729.3772,E,1,05,1.9,238.8,M,47.5,M,0.0,0000*74

$GPGGA,055546.228,5122.6674,N,00729.3873,E,1,05,1.9,238.8,M,47.5,M,0.0,0000*73

$GPGGA,055547.228,5122.6628,N,00729.3974,E,1,05,1.9,238.6,M,47.5,M,0.0,0000*73

$GPGGA,055548.228,5122.6584,N,00729.4074,E,1,06,1.3,238.4,M,47.5,M,0.0,0000*7C

$GPGGA,055549.228,5122.6539,N,00729.4174,E,1,06,1.3,238.3,M,47.5,M,0.0,0000*7D

$GPGGA,055550.228,5122.6494,N,00729.4273,E,1,06,1.3,238.2,M,47.5,M,0.0,0000*76

$GPGGA,055551.228,5122.6448,N,00729.4371,E,1,06,1.3,237.9,M,47.5,M,0.0,0000*71

$GPGGA,055552.228,5122.6403,N,00729.4469,E,1,07,1.0,237.8,M,47.5,M,0.0,0000*70

$GPGGA,055553.228,5122.6359,N,00729.4568,E,1,07,1.0,237.9,M,47.5,M,0.0,0000*78

$GPGGA,055554.228,5122.6315,N,00729.4667,E,1,07,1.0,237.9,M,47.5,M,0.0,0000*7B

$GPGGA,055555.228,5122.6272,N,00729.4768,E,1,07,1.0,238.3,M,47.5,M,0.0,0000*71

$GPGGA,055556.227,5122.6229,N,00729.4870,E,1,07,1.0,238.9,M,47.5,M,0.0,0000*7F

$GPGGA,055557.227,5122.6186,N,00729.4972,E,1,07,1.0,239.4,M,47.5,M,0.0,0000*77

$GPGGA,055558.227,5122.6141,N,00729.5073,E,1,07,1.0,240.2,M,47.5,M,0.0,0000*72

$GPGGA,055559.227,5122.6094,N,00729.5170,E,1,06,1.3,240.9,M,47.5,M,0.0,0000*71

$GPGGA,055600.227,5122.6044,N,00729.5264,E,1,07,1.0,241.5,M,47.5,M,0.0,0000*7A

$GPGGA,055601.227,5122.5991,N,00729.5353,E,1,06,1.3,242.0,M,47.5,M,0.0,0000*78

$GPGGA,055602.227,5122.5935,N,00729.5435,E,1,06,1.3,242.5,M,47.5,M,0.0,0000*77

$GPGGA,055603.227,5122.5875,N,00729.5511,E,1,06,1.3,242.8,M,47.5,M,0.0,0000*79

$GPGGA,055604.227,5122.5813,N,00729.5581,E,1,06,1.3,243.0,M,47.5,M,0.0,0000*7E

$GPGGA,055605.227,5122.5749,N,00729.5647,E,1,05,1.9,243.0,M,47.5,M,0.0,0000*7F

$GPGGA,055606.227,5122.5687,N,00729.5708,E,1,05,1.9,243.0,M,47.5,M,0.0,0000*75

$GPGGA,055607.227,5122.5626,N,00729.5763,E,1,06,1.3,243.2,M,47.5,M,0.0,0000*79

$GPGGA,055608.227,5122.5566,N,00729.5812,E,1,05,1.9,243.1,M,47.5,M,0.0,0000*72

$GPGGA,055609.227,5122.5506,N,00729.5850,E,1,07,1.0,242.4,M,47.5,M,0.0,0000*7C

$GPGGA,055610.227,5122.5447,N,00729.5881,E,1,07,1.0,241.5,M,47.5,M,0.0,0000*7E

$GPGGA,055611.227,5122.5393,N,00729.5902,E,1,07,1.0,240.6,M,47.5,M,0.0,0000*79

$GPGGA,055612.226,5122.5343,N,00729.5919,E,1,07,1.0,239.8,M,47.5,M,0.0,0000*7C

$GPGGA,055613.226,5122.5300,N,00729.5930,E,1,05,1.9,239.2,M,47.5,M,0.0,0000*70

$GPGGA,055614.226,5122.5266,N,00729.5937,E,1,06,1.3,238.6,M,47.5,M,0.0,0000*7D

$GPGGA,055615.226,5122.5242,N,00729.5941,E,1,06,1.3,238.1,M,47.5,M,0.0,0000*7C

$GPGGA,055616.226,5122.5226,N,00729.5942,E,1,06,1.3,237.5,M,47.5,M,0.0,0000*75

$GPGGA,055617.226,5122.5217,N,00729.5942,E,1,06,1.3,236.9,M,47.5,M,0.0,0000*7B

$GPGGA,055618.226,5122.5213,N,00729.5941,E,1,06,1.3,236.4,M,47.5,M,0.0,0000*7E

$GPGGA,055619.226,5122.5211,N,00729.5939,E,1,06,1.3,235.8,M,47.5,M,0.0,0000*7D

$GPGGA,055620.226,5122.5210,N,00729.5935,E,1,06,1.3,234.9,M,47.5,M,0.0,0000*7A

$GPGGA,055621.226,5122.5208,N,00729.5932,E,1,06,1.3,233.7,M,47.5,M,0.0,0000*7C

$GPGGA,055622.226,5122.5207,N,00729.5930,E,1,06,1.3,232.5,M,47.5,M,0.0,0000*71

$GPGGA,055623.226,5122.5201,N,00729.5929,E,1,05,1.9,231.7,M,47.5,M,0.0,0000*76

$GPGGA,055624.226,5122.5187,N,00729.5939,E,1,05,1.9,231.1,M,47.5,M,0.0,0000*7B

$GPGGA,055625.226,5122.5169,N,00729.5973,E,1,06,1.3,230.8,M,47.5,M,0.0,0000*75

$GPGGA,055626.226,5122.5159,N,00729.6030,E,1,07,1.0,230.5,M,47.5,M,0.0,0000*77

$GPGGA,055627.226,5122.5163,N,00729.6104,E,1,07,1.0,230.2,M,47.5,M,0.0,0000*7E

$GPGGA,055628.225,5122.5182,N,00729.6186,E,1,07,1.0,230.1,M,47.5,M,0.0,0000*74

$GPGGA,055629.225,5122.5217,N,00729.6263,E,1,07,1.0,229.7,M,47.5,M,0.0,0000*7C

$GPGGA,055630.225,5122.5260,N,00729.6340,E,1,05,2.4,229.1,M,47.5,M,0.0,0000*77

$GPGGA,055631.225,5122.5303,N,00729.6414,E,1,06,1.3,228.5,M,47.5,M,0.0,0000*76

$GPGGA,055632.225,5122.5336,N,00729.6474,E,1,06,1.3,228.1,M,47.5,M,0.0,0000*71

$GPGGA,055633.225,5122.5359,N,00729.6513,E,1,05,1.9,227.9,M,47.5,M,0.0,0000*77

$GPGGA,055634.225,5122.5370,N,00729.6532,E,1,05,2.0,227.6,M,47.5,M,0.0,0000*7D

$GPGGA,055635.225,5122.5373,N,00729.6537,E,1,05,2.0,227.3,M,47.5,M,0.0,0000*7F

$GPGGA,055636.225,5122.5374,N,00729.6535,E,1,05,2.0,227.1,M,47.5,M,0.0,0000*7B

$GPGGA,055637.225,5122.5376,N,00729.6535,E,1,05,2.0,227.1,M,47.5,M,0.0,0000*78

$GPGGA,055638.225,5122.5378,N,00729.6536,E,1,05,2.0,227.5,M,47.5,M,0.0,0000*7E

$GPGGA,055639.225,5122.5382,N,00729.6541,E,1,05,2.0,228.1,M,47.5,M,0.0,0000*71

$GPGGA,055640.225,5122.5394,N,00729.6561,E,1,06,1.3,228.4,M,47.5,M,0.0,0000*7C

$GPGGA,055641.225,5122.5417,N,00729.6602,E,1,06,1.3,228.5,M,47.5,M,0.0,0000*76

$GPGGA,055642.225,5122.5449,N,00729.6661,E,1,06,1.3,228.5,M,47.5,M,0.0,0000*7B

$GPGGA,055643.225,5122.5490,N,00729.6734,E,1,06,1.3,228.4,M,47.5,M,0.0,0000*7E

$GPGGA,055644.225,5122.5538,N,00729.6821,E,1,06,1.3,228.1,M,47.5,M,0.0,0000*74

$GPGGA,055645.224,5122.5585,N,00729.6908,E,1,06,1.3,227.4,M,47.5,M,0.0,0000*72

$GPGGA,055646.224,5122.5624,N,00729.6980,E,1,06,1.3,226.5,M,47.5,M,0.0,0000*79

$GPGGA,055647.224,5122.5651,N,00729.7033,E,1,06,1.3,225.7,M,47.5,M,0.0,0000*7B

$GPGGA,055648.224,5122.5662,N,00729.7074,E,1,07,1.0,225.2,M,47.5,M,0.0,0000*70

$GPGGA,055649.224,5122.5655,N,00729.7109,E,1,07,1.0,225.0,M,47.5,M,0.0,0000*7C

$GPGGA,055650.224,5122.5636,N,00729.7129,E,1,07,1.0,224.7,M,47.5,M,0.0,0000*75

$GPGGA,055651.224,5122.5612,N,00729.7124,E,1,07,1.0,224.5,M,47.5,M,0.0,0000*7D

$GPGGA,055652.224,5122.5595,N,00729.7105,E,1,07,1.0,224.3,M,47.5,M,0.0,0000*77

$GPGGA,055653.224,5122.5588,N,00729.7081,E,1,07,1.0,224.3,M,47.5,M,0.0,0000*77

$GPGGA,055654.224,5122.5592,N,00729.7059,E,1,07,1.0,224.2,M,47.5,M,0.0,0000*7F

$GPGGA,055655.224,5122.5599,N,00729.7046,E,1,07,1.0,224.0,M,47.5,M,0.0,0000*79

$GPGGA,055656.224,5122.5604,N,00729.7039,E,1,07,1.0,223.6,M,47.5,M,0.0,0000*74

$GPGGA,055657.224,5122.5605,N,00729.7035,E,1,07,1.0,222.9,M,47.5,M,0.0,0000*76

$GPGGA,055658.224,5122.5606,N,00729.7032,E,1,07,1.0,222.2,M,47.5,M,0.0,0000*76

$GPGGA,055659.224,5122.5606,N,00729.7029,E,1,07,1.0,221.5,M,47.5,M,0.0,0000*79

$GPGGA,055700.224,5122.5607,N,00729.7027,E,1,07,1.0,220.8,M,47.5,M,0.0,0000*77

$GPGGA,055701.223,5122.5609,N,00729.7026,E,1,07,1.0,220.2,M,47.5,M,0.0,0000*74

